source,sourcenum,waterbody_name,type,State,Country,latitude,longitude,Surface_area_km2,meandepth_m,Inflow_rate_m3s,res_time,TPout,Loading_constant_kgy,Vol,Loading_mgm2y,TPoutoverTPin,Rp,Rp_predicted,TPin ,K,10divz,flushing_rate,qs,qs,tn_out_mass,tp_out_mass,tn_in_mass,tp_in_mass,Rn_source,Rp_source,tn_in_conc,tn_out_conc
Rast and Lee 1978,1,Blackhawk,lake,Wisconsin,United States,43.020898,-90.284096,0.89,4.90,0.277,0.500,120,1980,4.36,2225,0.529,0.471,0.446,227,1.78,2.04,2.0,9.8,9.80,,,,,,,,
Rast and Lee 1978,2,Calhoun,lake,Minnesota,United States,44.943806,-93.039236,1.70,10.60,0.159,3.600,106,1462,18.02,860,0.363,0.637,0.671,292,0.49,0.94,0.3,2.9,2.94,,,,,,,,
Rast and Lee 1978,3,Camelot-Sherwood,lake,Wisconsin,United States,44.205562,-89.805035,2.80,3.00,2.316,0.115,30,7042,8.40,2515,0.311,0.689,0.287,96,19.25,3.33,8.7,26.1,26.09,,,,,,,,
Rast and Lee 1978,4,Canadarago,lake,New York,United States,42.809861,-75.002775,7.60,7.70,3.093,0.600,45,6004,58.52,790,0.731,0.269,0.467,62,0.61,1.30,1.7,12.8,12.83,,,,,,,,
Rast and Lee 1978,5,Cayuga,lake,New York,United States,42.760509,-76.735235,170.00,54.00,33.848,8.600,20,141100,9180.00,830,0.151,0.849,0.755,132,0.65,0.19,0.1,6.3,6.28,,,,,,,,
Rast and Lee 1978,6,Cedar,lake,Minnesota,United States,44.958638,-93.322001,0.69,6.10,0.040,3.300,55,242,4.21,350,0.290,0.710,0.662,189,0.74,1.64,0.3,1.8,1.85,,,,,,,,
Rast and Lee 1978,7,Cox Hollow,lake,Wisconsin,United States,43.010621,-90.107759,0.39,3.80,0.078,0.600,100,722,1.48,1850,0.342,0.658,0.467,292,3.20,2.63,1.7,6.3,6.33,,,,,,,,
Rast and Lee 1978,8,Dogfish,lake,Minnesota,United States,46.519229,-93.760719,0.29,4.00,0.011,3.500,10,5,1.16,17,0.672,0.328,0.668,15,0.14,2.50,0.3,1.1,1.14,,,,,,,,
Rast and Lee 1978,9,Dutch Hollow,lake,Wisconsin,United States,46.600264,-90.187926,0.85,3.00,0.045,1.800,400,833,2.55,980,0.680,0.320,0.595,588,0.26,3.33,0.6,1.7,1.67,,,,,,,,
Rast and Lee 1978,10,George,lake,New York,United States,43.429882,-73.700606,110.00,18.00,7.848,8.000,8.5,7880,1980.00,72,0.267,0.733,0.748,32,0.34,0.56,0.1,2.3,2.25,,,,,,,,
Rast and Lee 1978,11,Harriet,lake,Minnesota,United States,44.922076,-93.304061,1.40,8.80,0.163,2.400,62,994,12.32,710,0.320,0.680,0.628,194,0.88,1.14,0.4,3.7,3.67,,,,,,,,
Rast and Lee 1978,12,Isles ,lake,Minnesota,United States,44.953316,-93.308088,0.42,2.70,0.060,0.600,110,853,1.13,2030,0.244,0.756,0.467,451,5.17,3.70,1.7,4.5,4.50,,,,,,,,
Rast and Lee 1978,13,Kerr (Roanoke),reservoir,North Carolina,United States,36.663299,-78.612578,120.00,10.30,195.967,0.200,30,624000,1236.00,5200,0.297,0.703,0.343,101,11.83,0.97,5.0,51.5,51.50,,,,,,,,
Rast and Lee 1978,14,Kerr (Nutbush),reservoir,North Carolina,United States,36.537657,-78.322161,50.00,8.20,2.549,5.100,30,36000,410.00,720,0.067,0.933,0.706,448,2.73,1.22,0.2,1.6,1.61,,,,,,,,
Rast and Lee 1978,15,Lamb,lake,Minnesota,United States,48.165295,-92.106704,0.40,4.00,0.022,2.300,12,12,1.60,30,0.690,0.310,0.623,17,0.20,2.50,0.4,1.7,1.74,,,,,,,,
Rast and Lee 1978,16,Meander,lake,Minnesota,United States,48.136576,-92.1422,0.36,5.00,0.021,2.700,9,10,1.80,28,0.606,0.394,0.641,15,0.24,2.00,0.4,1.9,1.85,,,,,,,,
Rast and Lee 1978,17,Mendota,lake,Wisconsin,United States,43.101384,-89.414288,39.00,12.00,3.298,4.500,150,46800,468.00,1200,0.333,0.667,0.694,450,0.44,0.83,0.2,2.7,2.67,,,,,,,,
Rast and Lee 1978,18,Minnetonka,lake,Minnesota,United States,44.913956,-93.622806,26.20,8.30,1.095,6.300,60,2800,217.46,107,0.740,0.260,0.726,81,0.06,1.20,0.2,1.3,1.32,,,,,,,,
Rast and Lee 1978,19,Redstone,lake,Wisconsin,United States,43.608036,-90.091556,2.50,4.30,0.401,0.850,30,3900,10.75,1560,0.097,0.903,0.508,308,10.92,2.33,1.2,5.1,5.06,,,,,,,,
Rast and Lee 1978,20,Sallie,lake,Minnesota,United States,46.769332,-95.899909,5.30,6.40,0.742,1.450,350,15105,33.92,2850,0.542,0.458,0.571,646,0.58,1.56,0.7,4.4,4.41,,,,,,,,
Rast and Lee 1978,21,Sammamish,lake,Washington,United States,67.612213,-122.082458,20.00,18.00,6.342,1.800,30,13000,360.00,650,0.462,0.538,0.595,65,0.65,0.56,0.6,10.0,10.00,,,,,,,,
Rast and Lee 1978,22,Shagawa,lake,Minnesota,United States,47.914662,-91.886393,9.20,5.70,2.079,0.800,60,6250,52.44,679,0.629,0.371,0.501,95,0.74,1.75,1.3,7.1,7.13,,,,,,,,
Rast and Lee 1978,23,Stewart,lake,Wisconsin,United States,43.020125,-89.74099,0.03,1.90,0.019,0.080,40,161,0.05,6435,0.148,0.852,0.254,271,72.17,5.26,12.5,23.8,23.75,,,,,,,,
Rast and Lee 1978,24,Tahoe,lake,California,United States,39.130545,-120.041544,500.00,313.00,7.089,700.000,3,23400,156500.00,47,0.029,0.971,0.961,105,0.05,0.03,0.0,0.4,0.45,,,,,,,,
Rast and Lee 1978,25,East Twin,lake,Ohio,United States,41.194382,-81.332394,0.27,5.00,0.058,0.733,80,171,1.35,633,0.861,0.139,0.491,93,0.22,2.00,1.4,6.8,6.82,,,,,,,,
Rast and Lee 1978,26,West Twin ,lake,Ohio,United States,41.198208,-81.341835,0.34,4.34,0.032,1.467,110,113,1.48,333,0.977,0.024,0.572,113,0.02,2.30,0.7,3.0,2.96,,,,,,,,
Rast and Lee 1978,27,Twin Valley,lake,Wisconsin,United States,43.02986,-90.089959,0.61,3.80,0.163,0.450,70,1156,2.32,1895,0.312,0.688,0.434,224,4.90,2.63,2.2,8.4,8.44,,,,,,,,
Rast and Lee 1978,28,Waldo,lake,Oregon,United States,43.739494,-122.027014,27.00,36.00,1.468,21.000,5,458,972.00,17,0.505,0.495,0.824,10,0.05,0.28,0.0,1.7,1.71,,,,,,,,
Rast and Lee 1978,29,Washington,lake,Washington,United States,47.610036,-122.259754,88.00,33.00,38.369,2.400,18,41360,2904.00,470,0.527,0.473,0.628,34,0.37,0.30,0.4,13.8,13.75,,,,,,,,
Rast and Lee 1978,30,Weir,lake,Florida,United States,29.012289,-81.932388,24.00,6.30,1.142,4.200,80,3360,151.20,140,0.857,0.143,0.687,93,0.04,1.59,0.2,1.5,1.50,,,,,,,,
Higgins and Kim 1981,1,Kentucky,reservoir,Kentucky,United States,30.861109,-88.164911,583.40,5.00,2403.000,0.038,75,5485950,2900.00,9403,1.036,-0.036,0.194,72,-0.91,2.00,26.1,130.4,129.90,,,,,,,,
Higgins and Kim 1981,2,Pickwick,reservoir,Tennessee,United States,35.065955,-88.199932,162.00,6.50,1970.000,0.017,64,3175500,1050.00,19602,1.252,-0.252,0.141,51,-11.85,1.54,58.9,382.7,383.49,,,,,,,,
Higgins and Kim 1981,3,Wilson,reservoir,Alabama,United States,34.819354,-87.474733,63.40,12.30,1871.000,0.013,52,3281350,777.00,51756,0.935,0.065,0.127,56,5.28,0.81,76.0,935.3,930.66,,,,,,,,
Higgins and Kim 1981,4,Wheeler,reservoir,Alabama,United States,34.680525,-87.07534,227.50,5.30,1741.000,0.022,56,1912600,1202.00,8407,1.608,-0.608,0.156,35,-17.24,1.89,45.6,241.8,241.34,,,,,,,,
Higgins and Kim 1981,5,Guntersville,reservoir,Alabama,United States,34.529984,-86.12428,261.30,4.20,1427.000,0.025,29,1719150,1105.00,6579,0.759,0.241,0.163,38,12.87,2.38,40.6,170.3,172.22,,,,,,,,
Higgins and Kim 1981,6,Nickajack,reservoir,Tennessee,United States,35.020718,-85.558736,42.70,6.80,1203.000,0.008,35,1354150,288.00,31713,0.981,0.019,0.101,36,2.58,1.47,130.4,886.4,888.47,,,,,,,,
Higgins and Kim 1981,7,Chickamauga,reservoir,Tennessee,United States,35.313332,-85.060296,122.20,5.00,1154.000,0.017,27,930750,614.00,7617,1.056,-0.056,0.141,26,-3.11,2.00,58.9,294.4,297.81,,,,,,,,
Higgins and Kim 1981,8,Watts Bar,reservoir,Tennessee,United States,35.686554,-84.729157,148.00,7.30,975.000,0.035,27,1219100,1081.00,8237,0.681,0.319,0.187,40,13.36,1.37,28.5,208.2,207.75,,,,,,,,
Higgins and Kim 1981,9,Fort Loudoun,reservoir,Tennessee,United States,35.831261,-84.052833,54.50,7.30,470.000,0.027,50,657000,399.00,12055,1.128,-0.128,0.169,44,-4.23,1.37,37.2,271.9,271.96,,,,,,,,
Higgins and Kim 1981,10,Chatuge,reservoir,North Carolina,United States,34.989819,-83.788753,23.90,9.50,16.500,0.436,16,10950,227.00,458,0.760,0.240,0.430,21,0.72,1.05,2.3,21.8,21.77,,,,,,,,
Higgins and Kim 1981,11,Cherokee,reservoir,Tennessee,United States,36.201177,-83.455524,77.90,13.90,158.600,0.216,33,754820,1084.00,9690,0.219,0.781,0.352,151,16.51,0.72,4.6,64.2,64.21,,,,,,,,
Higgins and Kim 1981,12,Douglas,reservoir,Tennessee,United States,35.961718,-83.536625,78.90,10.70,230.900,0.118,33,480340,848.00,6088,0.500,0.500,0.290,66,8.48,0.93,8.5,90.8,92.29,,,,,,,,
Higgins and Kim 1981,13,Fontana,reservoir,North Carolina,United States,35.442681,-83.722039,31.30,37.80,133.400,0.282,15,185785,1183.00,5936,0.340,0.660,0.381,44,6.89,0.26,3.5,134.0,134.41,,,,,,,,
Higgins and Kim 1981,14,Hiwassee,reservoir,Tennessee,United States,35.411212,-85.013433,17.00,20.20,71.600,0.153,17,46355,344.00,2727,0.828,0.172,0.316,21,1.35,0.50,6.5,131.7,132.82,,,,,,,,
Higgins and Kim 1981,15,Norris,reservoir,Tennessee,United States,36.2255,-84.092801,105.00,16.30,145.500,0.373,14,162790,1715.00,1550,0.395,0.605,0.412,35,4.12,0.61,2.7,43.7,43.70,,,,,,,,
Higgins and Kim 1981,16,South Holston,reservoir,Tennessee,United States,36.533927,-82.054174,26.00,23.40,35.100,0.551,11,37595,609.00,1446,0.324,0.676,0.457,34,3.79,0.43,1.8,42.5,42.57,,,,,,,,
Higgins and Kim 1981,17,Tims Ford,reservoir,Tennessee,United States,35.218941,-86.270081,39.60,14.90,33.500,0.562,22,24455,592.00,618,0.950,0.050,0.460,23,0.09,0.67,1.8,26.5,26.68,,,,,,,,
Higgins and Kim 1981,18,Watauga,reservoir,Tennessee,United States,36.321525,-82.121438,22.80,24.50,25.700,0.688,12,39420,558.00,1729,0.247,0.753,0.483,49,4.44,0.41,1.5,35.6,35.55,,,,,,,,
Jones and Bachman 1976,1,West Okoboji,lake,Iowa,United States,43.37799,-95.154425,15.40,11.90,0.291,20.000,36,2618,183.26,170,0.126,0.874,0.821,286,0.35,0.84,0.05,0.6,0.60,,,,,,,,
Jones and Bachman 1976,2,East Okoboji,lake,Iowa,United States,43.386965,-95.107157,7.64,2.80,0.624,1.087,121,3744,21.39,490,0.636,0.364,0.537,190,0.53,3.57,0.92,2.6,2.58,,,,,,,,
Jones and Bachman 1976,3,Big Spirit,lake,Iowa,United States,43.475504,-95.102487,21.68,5.20,0.751,4.762,43,5637,112.74,260,0.181,0.819,0.699,238,0.95,1.92,0.21,1.1,1.09,,,,,,,,
Jones and Bachman 1976,4,Loon,lake,Iowa,United States,43.537182,-95.097035,2.91,1.50,0.354,0.391,85,1659,4.37,570,0.573,0.427,0.418,148,1.91,6.67,2.56,3.8,3.84,,,,,,,,
Jones and Bachman 1976,5,Silver,lake,Iowa,United States,43.479921,-93.417328,4.32,1.80,0.293,0.840,150,2333,7.78,540,0.595,0.405,0.507,252,0.81,5.56,1.19,2.1,2.14,,,,,,,,
Jones and Bachman 1976,6,Center,lake,Iowa,United States,43.411234,-95.135139,1.14,2.70,0.013,7.692,84,137,3.08,120,0.246,0.754,0.745,342,0.40,3.70,0.13,0.4,0.35,,,,,,,,
Jones and Bachman 1976,7,Lower Gar,lake,Iowa,United States,43.349955,-95.117935,0.98,1.10,0.214,0.160,117,1107,1.08,1130,0.712,0.288,0.320,164,2.53,9.09,6.25,6.9,6.88,,,,,,,,
Jones and Bachman 1976,8,Black Hawk,lake,Iowa,United States,42.297758,-95.020573,3.66,1.40,0.271,0.599,109,2123,5.12,580,0.439,0.561,0.467,248,2.13,7.14,1.67,2.3,2.34,,,,,,,,
Jones and Bachman 1976,9,Storm,lake,Iowa,United States,42.626754,-95.213641,12.46,2.20,0.287,3.030,66,2492,27.41,200,0.240,0.760,0.653,275,1.05,4.55,0.33,0.7,0.73,,,,,,,,
Jones and Bachman 1976,10,Lost Island,lake,Iowa,United States,43.170176,-94.900957,4.65,3.10,0.224,2.041,127,1814,14.42,390,0.495,0.505,0.610,257,0.50,3.23,0.49,1.5,1.52,,,,,,,,
Jones and Bachman 1976,11,Trumbull,lake,Iowa,United States,43.195799,-94.949908,3.29,1.00,0.948,0.110,104,6777,3.29,2060,0.459,0.541,0.283,227,10.72,10.00,9.09,9.1,9.09,,,,,,,,
Jones and Bachman 1976,12,High,lake,Iowa,United States,43.303483,-94.707559,2.18,1.00,0.095,0.730,130,785,2.18,360,0.495,0.505,0.490,263,1.40,10.00,1.37,1.4,1.37,,,,,,,,
Jones and Bachman 1976,13,Ingham,lake,Iowa,United States,43.317726,-94.696999,1.44,1.50,0.059,1.163,88,864,2.16,600,0.189,0.811,0.545,465,3.69,6.67,0.86,1.3,1.29,,,,,,,,
Jones and Bachman 1976,14,North Twin,lake,Iowa,United States,42.483277,-94.631952,1.77,3.00,0.062,2.703,53,513,5.31,290,0.203,0.797,0.641,261,1.45,3.33,0.37,1.1,1.11,,,,,,,,
Jones and Bachman 1976,15,Cornelia,lake,Iowa,United States,42.786507,-93.690261,0.85,1.40,0.009,4.000,75,94,1.19,110,0.239,0.761,0.682,314,0.80,7.14,0.25,0.4,0.35,,,,,,,,
Jones and Bachman 1976,16,Clear,lake,Iowa,United States,43.129884,-93.407046,14.43,2.70,0.210,5.882,36,2020,38.96,140,0.118,0.882,0.720,305,1.27,3.70,0.17,0.5,0.46,,,,,,,,
Vollenweider 1969,1,Aegerisee,lake,,Switzerland,47.121307,8.626715,7.24,49.00,1.294,8.696,7.6,1158,354.76,160,0.268,0.732,0.756,28,0.31,0.20,0.115,5.6,5.64,,,,,,,,
Vollenweider 1969,2,TÅrlersee,lake,,Switzerland,47.268158,8.502575,0.48,14.00,0.099,2.151,14.5,144,6.72,300,0.315,0.685,0.615,46,1.01,0.71,0.465,6.5,6.51,,,,,,,,
Vollenweider 1969,3,PfÑffikersee,lake,,Switzerland,47.352317,8.779372,3.31,18.00,0.727,2.597,88,4502,59.58,1360,0.448,0.552,0.636,196,0.47,0.56,0.385,6.9,6.93,,,,,,,,
Vollenweider 1969,4,Bodensee-Obsersee,lake,,Switzerland,47.602972,9.404568,477.00,100.00,310.074,4.878,115,1939005,47700.00,4065,0.580,0.420,0.702,198,0.15,0.10,0.205,20.5,20.50,,,,,,,,
Vollenweider 1969,5,Greifensee,lake,,Switzerland,47.354442,8.675003,8.56,19.00,2.527,2.041,118,13396,162.64,1565,0.702,0.298,0.610,168,0.21,0.53,0.49,9.3,9.31,,,,,,,,
Vollenweider 1969,6,Baldeggersee,lake,,Switzerland,47.199149,8.259975,5.25,34.00,1.245,4.545,162,9188,178.50,1750,0.692,0.308,0.695,234,0.10,0.29,0.22,7.5,7.48,,,,,,,,
Vollenweider 1969,7,Hallwilersee,lake,,Switzerland,47.285678,8.21689,10.30,28.00,2.378,3.846,40,5665,288.40,550,0.529,0.471,0.678,76,0.23,0.36,0.26,7.3,7.28,,,,,,,,
Vollenweider 1969,8,ZÅrichsee-Untersee,lake,,Switzerland,47.224427,8.736916,67.30,50.00,72.558,1.471,32,88836,3365.00,1320,0.824,0.176,0.572,39,0.15,0.20,0.68,34.0,34.00,,,,,,,,
Fricker 1980,1,Lunzer Untersee,lake,,Austria,47.853074,15.051877,0.68,20.00,1.198,0.360,8,347.1,13.60,511,0.855,0.145,0.408,9,0.47,0.50,2.8,55.6,55.56,,,,,,,,
Fricker 1980,2,Feldsee,lake,,Germany,47.870336,8.032627,0.09,15.70,0.094,0.485,4,14.2,1.44,155,0.905,0.095,0.443,5,0.22,0.64,2.1,32.3,32.38,,,,,,,,
Fricker 1980,3,Lago di Mergozzo,lake,,Italy,45.95459,8.464709,1.83,45.40,0.560,4.700,6,967.3,82.93,530,0.102,0.898,0.698,55,1.87,0.22,0.2,9.7,9.67,,,,,,,,
Fricker 1980,4,Agno,,,Italy,,,2.04,53.90,1.466,2.380,167,20420.4,110.00,10010,0.378,0.622,0.627,442,0.69,0.19,0.4,22.6,22.66,,,,,,,,
Fricker 1980,5,Piburgersee,lake,,Austria,47.19459,10.888748,0.13,13.00,0.021,2.740,11,10.0,1.79,74.5,0.711,0.289,0.642,15,0.15,0.77,0.4,4.7,4.86,,,,,,,,
Fricker 1980,6,Ossiachersee,lake,,Austria,46.667328,13.964262,10.79,19.93,3.551,1.920,14,8080.2,215.00,749,0.200,0.800,0.603,72,2.08,0.50,0.5,10.4,10.38,,,,,,,,
Fricker 1980,7,Attersee,lake,,Austria,47.865576,13.549444,46.60,84.20,17.869,7.000,5,11393.7,3944.60,244.5,0.266,0.734,0.736,20,0.39,0.12,0.1,12.0,12.09,,,,,,,,
Fricker 1980,8,Sempachersee,lake,,Switzerland,47.140602,8.160999,14.40,46.00,1.199,16.500,74,15696.0,624.00,1090,0.178,0.822,0.807,415,0.28,0.22,0.1,2.8,2.63,,,,,,,,
Fricker 1980,9,VWS Kreuztrichter,lake,,Switzerland,46.997499,8.46768,56.98,75.00,108.457,1.380,26,75783.4,4720.00,1330,1.164,-0.164,0.565,22,-0.10,0.13,0.7,54.3,60.03,,,,,,,,
Fricker 1980,10,VWS Gersau,lake,,Switzerland,46.989801,8.519479,25.44,156.00,80.888,1.560,19,60299.9,3979.40,2370,0.791,0.209,0.579,24,0.17,0.06,0.6,100.0,100.26,,,,,,,,
Fricker 1980,11,VWS Urnersee,lake,,Switzerland,46.943454,8.60517,26.83,133.00,66.794,1.700,17,91741.5,3580.90,3420,0.395,0.605,0.589,44,0.90,0.08,0.6,78.2,78.52,,,,,,,,
Fricker 1980,12,Lago Maggiore,lake,,Italy,45.951058,8.641675,212.51,177.00,298.809,4.000,22,720412.3,37693.00,3390,0.288,0.712,0.682,76,0.62,0.06,0.3,44.3,44.34,,,,,,,,
Fricker 1980,13,Walensee WVZ,lake,,Switzerland,47.123445,9.215502,24.23,100.00,54.881,1.400,29,96920.0,2423.00,4000,0.511,0.489,0.567,56,0.68,0.10,0.7,71.4,71.43,,,,,,,,
Fricker 1980,14,ZÅrichsee Obersee,lake,,Switzerland,47.211405,8.838421,20.25,23.00,77.939,0.190,38,297675.0,467.00,14700,0.317,0.683,0.338,121,11.34,0.43,5.3,121.1,121.38,,,,,,,,
Fricker 1980,15,Lac Leman,lake,,France,46.433945,6.592999,582.36,152.69,256.330,11.000,92,861892.8,88920.00,1480,0.863,0.137,0.775,107,0.01,0.07,0.1,13.9,13.88,,,,,,,,
Fricker 1980,16,Lago di Oggiono,lake,,Italy,45.797934,9.346748,3.81,6.31,0.560,1.360,170,7620.0,24.03,2000,0.394,0.606,0.563,431,1.13,1.58,0.7,4.6,4.64,,,,,,,,
Fricker 1980,17,Lago di Pusiano,lake,,Italy,45.800952,9.271867,4.93,14.03,3.228,0.680,71,29598.0,69.23,6000,0.244,0.756,0.482,291,4.55,0.71,1.5,20.6,20.64,,,,,,,,
Fricker 1980,18,Lago di Montorfano,lake,,Italy,45.782196,9.13717,0.46,4.15,0.040,1.510,16,91.8,1.91,200,0.220,0.780,0.575,73,2.35,2.41,0.7,2.7,2.75,,,,,,,,
Fricker 1980,19,Lago del Segrino,lake,,Italy,45.829281,9.26715,0.38,3.17,0.090,0.420,38,378.0,1.20,1000,0.287,0.713,0.426,133,5.93,3.15,2.4,7.5,7.54,,,,,,,,
Fricker 1980,20,Lago d' Alserio,lake,,Italy,45.785579,9.213729,1.23,5.34,0.594,0.350,143,13508.0,6.55,11000,0.198,0.802,0.405,721,11.56,1.87,2.9,15.3,15.25,,,,,,,,
Janis and Vollenweider 1981,1,Bennet,,New Brunswick,Canada,,,0.31,2.26,0.555,0.040,6,161,0.70,520,0.651,0.349,0.197,9,13.38,4.42,25.0,56.5,56.45,,,,,,,,
Janis and Vollenweider 1981,2,Mclaren,,New Brunswick,Canada,,,0.01,5.10,0.010,0.110,20.6,10,0.04,1560,0.645,0.355,0.283,32,5.00,1.96,9.1,46.4,48.85,,,,,,,,
Janis and Vollenweider 1981,3,Wolfe,,New Brunswick,Canada,,,0.22,3.83,0.064,0.420,7.7,13,0.85,61,1.157,-0.157,0.426,7,-0.32,2.61,2.4,9.1,9.17,,,,,,,,
Janis and Vollenweider 1981,4,Grafton,,Nova Scotia,Canada,,,2.70,2.80,1.685,0.140,10.5,540,7.44,200,1.033,-0.033,0.307,10,-0.23,3.57,7.1,20.0,19.68,,,,,,,,
Janis and Vollenweider 1981,5,Mountain,,Nova Scotia,Canada,,,1.36,4.20,0.274,0.670,5.1,46,5.79,34,0.953,0.047,0.480,5,0.07,2.38,1.5,6.3,6.35,,,,,,,,
Janis and Vollenweider 1981,6,Pebbleloggitch,,Nova Scotia,Canada,,,0.33,1.40,0.051,0.290,10.5,17,0.47,52,0.992,0.008,0.384,11,0.03,7.14,3.4,4.8,4.91,,,,,,,,
Janis and Vollenweider 1981,7,Kejimkujik,,Nova Scotia,Canada,,,24.40,4.40,22.408,0.150,9.2,7270,106.00,298,0.894,0.106,0.314,10,0.79,2.27,6.7,29.3,28.96,,,,,,,,
Janis and Vollenweider 1981,8,Warren,,Nova Scotia,Canada,,,0.90,15.90,1.619,0.280,6.2,340,14.30,379,0.931,0.069,0.380,7,0.26,0.63,3.6,56.8,56.87,,,,,,,,
Janis and Vollenweider 1981,9,Memphremagog N,,Quebec,Canada,,,20.36,14.70,40.440,0.235,10.7,10320,299.70,507,1.318,-0.318,0.361,8,-1.03,0.68,4.3,62.6,62.64,,,,,,,,
Janis and Vollenweider 1981,10,Memphremagog S,,Quebec,Canada,,,23.53,44.30,26.406,1.253,13.0,23072,1043.00,981,0.469,0.531,0.554,28,0.90,0.23,0.8,35.4,35.39,,,,,,,,
Janis and Vollenweider 1981,11,Memphremagog C,,Quebec,Canada,,,56.07,6.20,36.175,0.304,18.6,26916,347.00,480,0.789,0.211,0.389,24,0.88,1.61,3.3,20.4,20.35,,,,,,,,
Janis and Vollenweider 1981,12,Pink's,,Quebec,Canada,,,0.12,12.40,0.041,1.120,20.0,99,1.46,853,0.263,0.737,0.541,76,2.50,0.81,0.9,11.1,11.24,,,,,,,,
Janis and Vollenweider 1981,13,Beech,,Ontario,Canada,,,1.36,9.80,8.269,0.051,7.4,2065,13.30,1518,0.935,0.065,0.216,8,1.37,1.02,19.6,192.2,191.75,,,,,,,,
Janis and Vollenweider 1981,14,Bob,,Ontario,Canada,,,2.27,18.00,0.430,3.000,6.4,360,40.70,159,0.241,0.759,0.652,27,1.05,0.56,0.3,6.0,5.98,,,,,,,,
Janis and Vollenweider 1981,15,Cameron,,Ontario,Canada,,,12.72,7.10,47.512,0.060,8.9,24905,89.90,1958,0.535,0.465,0.229,17,14.46,1.41,16.7,118.3,117.79,,,,,,,,
Janis and Vollenweider 1981,16,Eagle & Moose,,Ontario,Canada,,,5.15,12.80,4.013,0.520,7.1,1155,65.80,224,0.778,0.222,0.451,9,0.55,0.78,1.9,24.6,24.57,,,,,,,,
Janis and Vollenweider 1981,17,Four Mile,,Ontario,Canada,,,7.73,9.30,0.527,4.300,7.9,830,71.40,107,0.158,0.842,0.689,50,1.24,1.08,0.2,2.2,2.15,,,,,,,,
Janis and Vollenweider 1981,18,Halls,,Ontario,Canada,,,5.32,27.20,4.105,1.120,3.7,1095,145.00,206,0.437,0.563,0.541,8,1.15,0.37,0.9,24.3,24.34,,,,,,,,
Janis and Vollenweider 1981,19,Oblong & Haliburton,,Ontario,Canada,,,11.03,17.70,1.986,3.130,4.8,1380,196.00,125,0.218,0.782,0.656,22,1.15,0.56,0.3,5.7,5.68,,,,,,,,
Janis and Vollenweider 1981,20,Twelve Mile & Boskung,,Ontario,Canada,,,11.65,18.10,14.137,0.480,6.1,3900,214.00,335,0.697,0.303,0.441,9,0.90,0.55,2.1,37.7,38.27,,,,,,,,
Janis and Vollenweider 1981,21,Dudley,,Ontario,Canada,,,3.50,6.70,0.544,1.400,15.0,609,24.00,174,0.422,0.578,0.567,36,0.98,1.49,0.7,4.8,4.90,,,,,,,,
Janis and Vollenweider 1981,22,Jerry,,Ontario,Canada,,,0.55,13.60,0.159,1.500,14.5,175,7.53,316,0.416,0.584,0.575,35,0.94,0.74,0.7,9.1,9.08,,,,,,,,
Janis and Vollenweider 1981,23,Harp,,Ontario,Canada,,,0.75,13.90,0.094,3.500,11.0,135,10.40,180,0.242,0.758,0.668,45,0.89,0.72,0.3,4.0,3.96,,,,,,,,
Janis and Vollenweider 1981,24,Gravehurst,,Ontario,Canada,,,4.13,7.60,0.553,1.800,68.0,9680,31.40,2344,0.123,0.877,0.595,555,3.98,1.32,0.6,4.2,4.22,,,,,,,,
Janis and Vollenweider 1981,25,Joseph,,Ontario,Canada,,,49.90,25.30,1.904,20.900,7.9,3794,1255.00,76,0.125,0.875,0.824,63,0.33,0.40,0.0,1.2,1.20,,,,,,,,
Janis and Vollenweider 1981,26,L Joseph,,Ontario,Canada,,,2.30,17.00,0.538,2.300,7.5,490,39.00,213,0.260,0.740,0.623,29,1.24,0.59,0.4,7.4,7.37,,,,,,,,
Janis and Vollenweider 1981,27,Muskoka,,Ontario,Canada,,,130.00,16.80,71.887,0.940,9.3,70293,2131.00,541,0.300,0.700,0.520,31,2.48,0.60,1.1,17.9,17.44,,,,,,,,
Janis and Vollenweider 1981,28,Skeleton Bay,,Ontario,Canada,,,1.60,9.40,1.982,0.240,11.0,1682,15.00,1051,0.409,0.591,0.363,27,6.03,1.06,4.2,39.2,39.06,,,,,,,,
Janis and Vollenweider 1981,29,Brewer,,Ontario,Canada,,,0.41,5.70,0.069,1.060,8.6,36,2.30,88,0.518,0.482,0.534,17,0.88,1.75,0.9,5.4,5.29,,,,,,,,
Janis and Vollenweider 1981,30,Clarke,,Ontario,Canada,,,0.20,5.60,0.592,0.060,10.0,198,1.12,990,0.943,0.057,0.229,11,1.01,1.79,16.7,93.3,93.33,,,,,,,,
Janis and Vollenweider 1981,31,Costello,,Ontario,Canada,,,0.34,8.40,0.108,0.850,9.6,63,2.89,185,0.518,0.482,0.508,19,1.09,1.19,1.2,9.9,10.00,,,,,,,,
Janis and Vollenweider 1981,32,Found ,,Ontario,Canada,,,0.13,11.60,0.002,20.000,7.0,5.6,1.50,43,0.094,0.906,0.821,75,0.48,0.86,0.1,0.6,0.58,,,,,,,,
Janis and Vollenweider 1981,33,Kearney,,Ontario,Canada,,,0.32,7.30,0.172,0.430,12.1,71,2.33,222,0.923,0.077,0.429,13,0.19,1.37,2.3,17.0,16.93,,,,,,,,
Janis and Vollenweider 1981,34,L. McCualey,,Ontario,Canada,,,0.18,3.80,0.023,0.950,7.1,16,0.69,89,0.322,0.678,0.521,22,2.21,2.63,1.1,4.0,4.04,,,,,,,,
Janis and Vollenweider 1981,35,Cranberry,,Ontario,Canada,,,0.69,3.50,4.551,0.017,9.9,897,2.44,1300,1.584,-0.584,0.141,6,-21.69,2.86,58.8,205.9,208.01,,,,,,,,
Janis and Vollenweider 1981,36,Maple,,Ontario,Canada,,,3.32,11.60,8.160,0.150,9.3,2762,38.60,832,0.866,0.134,0.314,11,1.03,0.86,6.7,77.3,77.51,,,,,,,,
Janis and Vollenweider 1981,37,Pine,,Ontario,Canada,,,1.08,7.40,4.401,0.058,10.5,1139,8.05,1055,1.279,-0.279,0.226,8,-3.76,1.35,17.2,127.6,128.51,,,,,,,,
Janis and Vollenweider 1981,38,Raven,,Ontario,Canada,,,1.07,0.73,0.330,0.075,8.3,224,0.78,209,0.386,0.614,0.248,22,21.21,13.70,13.3,9.7,9.72,,,,,,,,
Janis and Vollenweider 1981,39,Talbot,,Ontario,Canada,,,1.07,0.85,0.144,0.200,15.3,105,0.91,98,0.664,0.336,0.343,23,2.53,11.76,5.0,4.3,4.25,,,,,,,,
Janis and Vollenweider 1981,40,L. Otter,,Ontario,Canada,,,0.67,2.70,0.587,0.100,13,159,1.85,238,1.508,-0.508,0.274,9,-3.37,3.70,10.0,27.0,27.61,,,,,,,,
Janis and Vollenweider 1981,41,Rosseau,,Ontario,Canada,,,58.40,25.50,9.784,4.800,8.2,8935,1481.00,153,0.283,0.717,0.700,29,0.53,0.39,0.2,5.3,5.28,,,,,,,,
Janis and Vollenweider 1981,42,Simcoe,,Ontario,Canada,,,725.00,16.00,17.600,20.900,19,137750,11600.00,190,0.077,0.923,0.824,248,0.58,0.63,0.0,0.8,0.77,,,,,,,,
Janis and Vollenweider 1981,43,Superior,,,United States/Canada,,,82367.00,148.00,2094.732,185.000,4.6,4200000,12221000.00,51,0.072,0.928,0.929,64,0.07,0.07,0.0,0.8,0.80,,,,,,,,
Janis and Vollenweider 1981,44,Michigan,,,United States/Canada,,,58016.00,84.00,1871.830,89.000,11.5,6430000,4871000.00,111,0.106,0.894,0.902,109,0.10,0.12,0.0,0.9,1.02,,,,,,,,
Janis and Vollenweider 1981,45,Huron,,,United States/Canada,,,59570.00,61.00,5337.815,21.000,5.5,4860000,3535000.00,82,0.191,0.809,0.824,29,0.20,0.16,0.0,2.9,2.83,,,,,,,,
Janis and Vollenweider 1981,46,Ontario,,,United States/Canada,,,19009.00,86.00,6574.764,7.900,21.0,13770000,1638000.00,724,0.316,0.684,0.747,66,0.27,0.12,0.1,10.9,10.91,,,,,,,,
Janis and Vollenweider 1981,47,Winnepeg,,Manitoba,Canada,,,23750.00,12.00,2573.023,3.500,60,6890000,284000.00,290,0.707,0.293,0.668,85,0.12,0.83,0.3,3.4,3.42,,,,,,,,
Janis and Vollenweider 1981,48,L 239,,Ontario,Canada,,,0.54,10.50,0.035,5.340,8.5,35,5.91,64,0.271,0.729,0.711,31,0.50,0.95,0.2,2.0,2.04,,,,,,,,
Janis and Vollenweider 1981,49,L 114,,Ontario,Canada,,,0.12,1.70,0.002,4.100,12,1,0.21,10,0.508,0.492,0.684,24,0.24,5.88,0.2,0.4,0.42,,,,,,,,
Janis and Vollenweider 1981,50,L 240,,Ontario,Canada,,,0.44,6.10,0.074,1.140,11,39,2.67,88,0.664,0.336,0.543,17,0.44,1.64,0.9,5.4,5.31,,,,,,,,
Janis and Vollenweider 1981,51,L 261,,Ontario,Canada,,,0.06,2.90,0.004,1.260,18.5,4,0.16,78,0.538,0.462,0.554,34,0.68,3.45,0.8,2.3,2.27,,,,,,,,
Janis and Vollenweider 1981,52,Echo,,Saskatchewan,Canada,,,12.50,9.10,10.736,0.337,503,134500,114.10,10760,1.266,-0.266,0.401,397,-0.62,1.10,3.0,27.0,27.09,,,,,0.178988327,,2570,2110
Janis and Vollenweider 1981,53,Mission,,Saskatchewan,Canada,,,7.60,8.70,10.273,0.192,497.5,140676,62.20,18510,1.146,-0.146,0.339,434,-0.66,1.15,5.2,45.3,42.63,,,,,0.009478673,,2110,2090
Janis and Vollenweider 1981,54,Katepwa,,Saskatchewan,Canada,,,16.10,14.10,11.106,0.647,510,137011,226.60,8510,1.304,-0.304,0.476,391,-0.36,0.71,1.5,21.8,21.75,,,,,0.110047847,,2090,1860
Janis and Vollenweider 1981,55,Crooked,,Saskatchewan,Canada,,,14.80,8.30,12.798,0.306,246.5,161024,123.50,10880,0.618,0.382,0.390,399,2.02,1.20,3.3,27.1,27.27,,,,,0.017045455,,1760,1730
Janis and Vollenweider 1981,56,Round,,Saskatchewan,Canada,,,11.00,8.10,13.736,0.205,205,136180,88.80,12380,0.652,0.348,0.346,314,2.60,1.23,4.9,39.5,39.38,,,,,0.065789474,,1520,1420
Janis and Vollenweider 1981,57,Pasque,,Saskatchewan,Canada,,,19.90,5.80,10.542,0.345,600,145000,114.70,7286,1.376,-0.376,0.403,436,-0.79,1.72,2.9,16.8,16.71,,,,,0.314666667,,3750,2570
Janis and Vollenweider 1981,58,Babine,,Britsh Columbia,Canada,,,490.70,55.10,47.042,18.200,5.95,24150,27000.00,49,0.366,0.634,0.814,16,0.10,0.18,0.1,3.0,3.02,,,,,,,,
Janis and Vollenweider 1981,59,Kamloops,,Britsh Columbia,Canada,,,52.10,71.00,733.289,0.160,9,900000,3700.00,17274,0.231,0.769,0.320,39,20.78,0.14,6.3,443.8,443.86,,,,,,,,
Janis and Vollenweider 1981,60,Kootenay,,Britsh Columbia,Canada,,,389.00,94.00,646.527,1.800,18,290000,36700.00,746,1.266,-0.266,0.595,14,-0.12,0.11,0.6,52.2,52.41,,,,,,,,
Janis and Vollenweider 1981,61,Wood,,Britsh Columbia,Canada,,,9.30,21.00,0.444,14.000,92,1453,196.00,156,0.887,0.113,0.795,104,0.01,0.48,0.1,1.5,1.51,,,,,,,,
Janis and Vollenweider 1981,62,Kalamalka,,Britsh Columbia,Canada,,,26.00,59.00,1.064,45.000,9.7,2475,1510.00,95,0.132,0.868,0.870,74,0.15,0.17,0.0,1.3,1.29,,,,,,,,
Janis and Vollenweider 1981,63,Okanagan,,Britsh Columbia,Canada,,,344.40,75.30,13.847,60.000,11.8,46834,26200.00,136,0.110,0.890,0.885,107,0.13,0.13,0.0,1.3,1.27,,,,,,,,
Janis and Vollenweider 1981,64,Skaha,,Britsh Columbia,Canada,,,20.10,26.50,14.058,1.200,20.1,23991,532.00,1194,0.371,0.629,0.549,54,1.41,0.38,0.8,22.1,22.06,,,,,,,,
Janis and Vollenweider 1981,65,"Osoyoos, N.",,Britsh Columbia,Canada,,,9.90,20.70,16.227,0.400,19.5,17510,204.70,1769,0.570,0.430,0.420,34,1.89,0.48,2.5,51.8,51.69,,,,,,,,
Rydin 1980,1,Boren,,,Sweden,,,28.00,6.00,20.318,0.291,22.8,32200,170.00,1150,0.453,0.547,0.384,50,4.15,1.67,3.4,20.6,22.88,318396.6881,14206.2128,596856.5814,16901.14563,0.466544061,0.159452672,,
Rydin 1980,2,Esrum,,,Denmark,,,17.30,12.30,0.479,14.567,238.0,9227,218.10,533,0.390,0.610,0.798,611,0.11,0.81,0.1,0.8,0.87,11221.39739,3929.563209,71375.24558,9378.368787,0.842783064,0.580997155,,
Rydin 1980,3,Gjersj?,,,Norway,,,2.70,22.70,0.526,4.700,26.9,1958,68.80,725,0.228,0.772,0.698,118,0.72,0.44,0.2,4.8,6.15,20268.62962,359.3666817,51984.2829,1648.046277,0.610100813,0.781943817,,
Rydin 1980,4,MÑlaren,,,Sweden,,,20.20,17.10,10.084,1.245,69.3,56560,346.00,2800,0.390,0.610,0.553,178,1.26,0.58,0.8,13.7,15.74,,,,,,,,
Rydin 1980,5,Mj?sa,,,Norway,,,365.00,153.00,290.493,6.175,10.0,273750,56244.00,750,0.335,0.665,0.725,30,0.32,0.07,0.2,24.8,25.10,3980934.857,84059.0255,4316895.873,274953.2692,0.077824675,0.694278865,,
Rydin 1980,6,Moss?-1,,,Denmark,,,13.10,10.30,1.903,2.300,136.7,11790,135.60,900,0.696,0.304,0.623,197,0.19,0.97,0.4,4.5,4.58,100552.0132,9301.966701,162141.4539,11921.8293,0.379850058,0.219753406,,
Rydin 1980,7,Moss?-2,,,Denmark,,,0.40,2.90,6.437,0.005,163.3,32000,1.00,80000,1.036,-0.036,0.084,158,-7.08,3.45,203.0,588.7,507.50,,,,,,,,
Rydin 1980,8,Paajarvi,,,Finland,,,13.40,14.40,1.811,4.129,9.4,4403,205.70,329,0.122,0.878,0.685,77,1.74,0.69,0.2,3.5,4.26,50032.29721,1355.658865,77398.82122,3971.128739,0.353578046,0.658621275,,
Rydin 1980,9,PÑijÑnne-1,,,Finland,,,142.00,18.00,153.433,0.564,24.4,146733,2530.00,1033,0.806,0.194,0.460,30,0.43,0.56,1.8,31.9,34.08,2587175.071,100745.0087,2812102.162,141660.1744,0.079985391,0.288826172,,
Rydin 1980,10,PÑijÑnne-2,,,Finland,,,166.00,20.00,163.955,0.720,16.0,107900,3288.00,650,0.767,0.233,0.489,21,0.42,0.50,1.4,27.8,31.15,3398884.767,135126.0081,3698310.413,133102.5088,0.080962821,-0.015202563,,
Rydin 1980,11,PÑijÑnne-3,,,Finland,,,45.00,15.00,66.210,0.322,33.7,69750,652.00,1550,1.009,-0.009,0.395,33,-0.03,0.67,3.1,46.6,46.40,1058364.978,50172.69222,1256286.837,71816.56115,0.157545119,0.301377128,,
Rydin 1980,12,PÑijÑnne-4,,,Finland,,,143.00,21.00,169.203,0.577,17.1,114400,3078.00,800,0.798,0.202,0.463,21,0.44,0.48,1.7,36.4,37.31,1299898.215,29002.78924,3343222.004,113594.63,0.611183998,0.744681687,,
Rydin 1980,13,PÑijÑnne-5,,,Finland,,,582.00,14.00,251.094,1.096,12.1,174600,8252.00,300,0.549,0.451,0.538,22,0.75,0.71,0.9,12.8,13.61,3593213.181,90655.54544,4242082.515,177888.6218,0.152960092,0.490380305,,
Rydin 1980,14,Tuusulan,,,Finland,,,6.00,3.10,0.824,1.072,110.3,10000,20.00,1667,0.287,0.713,0.536,385,2.32,3.23,0.9,2.9,4.33,62079.64686,4219.219776,110569.7446,10127.96818,0.438547614,0.583409061,,
